{
  "type": "FeatureCollection",
  "features": [
    {
      "type": "Feature",
      "properties": {
        "Type": "Moog",
        "Name": "Moog Headquarters",
        "URL": "http://www.moogmusic.com/",
        "Description": "Moog Music Inc headquarters"
        "marker-symbol": ""
      },
      "geometry": {
        "type": "Point",
        "coordinates": [
          -82.55401611328125,
          35.5942273151805
        ]
      }
    },
    {
      "type": "Feature",
      "properties": {
        "Type": "Musician",
        "Name": "Alexandre Leroux",
        "URL": "animoog.org/satri",
        "Description": "Animoog enthusiast and founder of animoog.org"
      },
      "geometry": {
        "type": "Point",
        "coordinates": [
          -73.58814239501953,
          45.5077905484003
        ]
      }
    },
    {
      "type": "Feature",
      "properties": {
        "Type": "Musician",
        "Name": "Hans Noort",
        "URL": "Compatibles2 Music",
        "Description": "Animoog / Synth Musician"
      },
      "geometry": {
        "type": "Point",
        "coordinates": [
          4.335828423500061,
          51.99887937509087
        ]
      }
    },
    {
      "type": "Feature",
      "properties": {
        "Type": "Musician",
        "Name": "Sergey Zakharov",
        "Description": "Bassist/Animoog/Electronics"
      },
      "geometry": {
        "type": "Point",
        "coordinates": [
          -117.99803495407104,
          34.04115615806409
        ]
      }
    },
    {
      "type": "Feature",
      "properties": {
        "marker-color": "#168411",
        "marker-size": "medium",
        "marker-symbol": "",
        "Type": "Musician",
        "Name": "Victor Burenko",
        "URL": "vk.com/iosmusician",
        "Description": "Drummer/iOSMusician"
      },
      "geometry": {
        "type": "Point",
        "coordinates": [
          39.71660614013671,
          43.58635949637695
        ]
      }
    },
    {
      "type": "Feature",
      "properties": {
        "Type": "Moog",
        "Name": "Geert Bevin",
        "URL": "http://gbevin.com",
        "Description": "Senior Software Engineer at Moog, Electronic Musician",
        "marker-color": ""
      },
      "geometry": {
        "type": "Point",
        "coordinates": [
          4.9607133865356445,
          50.568928517357314
        ]
      }
    }
  ]
}
